{"name": "Evelyn D Thompson", "phone": "603-785-6210", "city": "Manchester", "state": "NH", "zipcode": " 03103", "lat": "43.036118", "lng": " -71.346161", "street": "2117 Milford Street"}{"name": "Thomas B Lillie", "phone": "603-854-1458", "city": "Manchester", "state": "NH", "zipcode": " 03109", "lat": "43.039421", "lng": " -71.351112", "street": "2736 Peck Street"}{"name": "Gary M Travis", "phone": "603-203-3288", "city": "Manchester", "state": "NH", "zipcode": " 03103", "lat": "42.986961", "lng": " -71.360054", "street": "1248 Shearwood Forest Drive"}{"name": "Donald J Cates", "phone": "603-674-0413", "city": "Manchester", "state": "NH", "zipcode": " 03101", "lat": "42.914928", "lng": " -71.394279", "street": "1576 Elliott Street"}{"name": "John L Rumsey", "phone": "603-564-3658", "city": "Manchester", "state": "NH", "zipcode": " 03101", "lat": "43.048645", "lng": " -71.381851", "street": "1904 Elliott Street"}{"name": "Perry J Gutierrez", "phone": "603-302-1169", "city": "Manchester", "state": "NH", "zipcode": " 03101", "lat": "42.982098", "lng": " -71.435577", "street": "2416 Grasselli Street"}{"name": "James M Mayers", "phone": "603-302-9235", "city": "Manchester", "state": "NH", "zipcode": " 03103", "lat": "43.002991", "lng": " -71.399788", "street": "3980 Milford Street"}{"name": "Janice J Finley", "phone": "603-480-0788", "city": "Manchester", "state": "NH", "zipcode": " 03103", "lat": "42.943756", "lng": " -71.450668", "street": "2916 Milford Street"}{"name": "Tim J Newton", "phone": "603-639-3007", "city": "Manchester", "state": "NH", "zipcode": " 03103", "lat": "42.957363", "lng": " -71.422318", "street": "3551 Elliott Street"}{"name": "Michael I Nunn", "phone": "603-467-3808", "city": "Manchester", "state": "NH", "zipcode": " 03101", "lat": "42.974213", "lng": " -71.426056", "street": "3252 Milford Street"}{"name": "Christopher J Daniels", "phone": "603-480-1404", "city": "Manchester", "state": "NH", "zipcode": " 03101", "lat": "42.930050", "lng": " -71.368813", "street": "1836 Milford Street"}{"name": "Robert M White", "phone": "603-674-4679", "city": "Manchester", "state": "NH", "zipcode": " 03103", "lat": "42.943039", "lng": " -71.388603", "street": "4154 Milford Street"}{"name": "Gwendolyn W Boothe", "phone": "603-203-8474", "city": "Manchester", "state": "NH", "zipcode": " 03109", "lat": "42.938732", "lng": " -71.500938", "street": "674 Shearwood Forest Drive"}{"name": "Christopher J Daniels", "phone": "603-480-1404", "city": "Manchester", "state": "NH", "zipcode": " 03101", "lat": "42.930050", "lng": " -71.368813", "street": "1836 Milford Street"}{"name": "James M Mayers", "phone": "603-302-9235", "city": "Manchester", "state": "NH", "zipcode": " 03103", "lat": "43.002991", "lng": " -71.399788", "street": "3980 Milford Street"}{"name": "Michael S Hack", "phone": "603-241-6138", "city": "Manchester", "state": "NH", "zipcode": " 03103", "lat": "42.873817", "lng": " -71.459656", "street": "374 Peck Street"}{"name": "Donna A Murphy", "phone": "603-303-3167", "city": "Manchester", "state": "NH", "zipcode": " 03103", "lat": "42.964638", "lng": " -71.518845", "street": "3291 Elliott Street"}{"name": "Arden L Black", "phone": "603-799-8640", "city": "Manchester", "state": "NH", "zipcode": " 03109", "lat": "42.937454", "lng": " -71.420090", "street": "1987 Milford Street"}{"name": "Corey L Watson", "phone": "603-302-8580", "city": "Manchester", "state": "NH", "zipcode": " 03103", "lat": "42.939968", "lng": " -71.396797", "street": "2983 Elliott Street"}{"name": "Adriana R Baxter", "phone": "603-303-1470", "city": "Manchester", "state": "NH", "zipcode": " 03103", "lat": "42.917946", "lng": " -71.500916", "street": "4610 Milford Street"}{"name": "Dave D Belford", "phone": "603-851-0958", "city": "Manchester", "state": "NH", "zipcode": " 03101", "lat": "42.977844", "lng": " -71.452255", "street": "4612 Shearwood Forest Drive"}{"name": "Shenika R Acevedo", "phone": "603-860-3288", "city": "Manchester", "state": "NH", "zipcode": " 03103", "lat": "42.929623", "lng": " -71.357925", "street": "208 Peck Street"}{"name": "Antonio E Rule", "phone": "603-639-0245", "city": "Manchester", "state": "NH", "zipcode": " 03103", "lat": "42.855591", "lng": " -71.363777", "street": "1515 Milford Street"}{"name": "Joseph D Golding", "phone": "603-240-4619", "city": "Manchester", "state": "NH", "zipcode": " 03101", "lat": "43.033482", "lng": " -71.527977", "street": "3513 Elliott Street"}{"name": "Karen L Delapaz", "phone": "603-655-7536", "city": "Manchester", "state": "NH", "zipcode": " 03103", "lat": "42.979198", "lng": " -71.398682", "street": "1859 Peck Street"}{"name": "Amber H Thompson", "phone": "603-240-5455", "city": "Manchester", "state": "NH", "zipcode": " 03101", "lat": "43.075035", "lng": " -71.506508", "street": "132 Milford Street"}{"name": "Annie J Cochran", "phone": "603-481-4600", "city": "Manchester", "state": "NH", "zipcode": " 03101", "lat": "43.075310", "lng": " -71.417839", "street": "1184 Peck Street"}{"name": "William A Nelson", "phone": "603-655-4425", "city": "Manchester", "state": "NH", "zipcode": " 03103", "lat": "42.999535", "lng": " -71.440353", "street": "297 Elliott Street"}{"name": "Diana L French", "phone": "603-661-7423", "city": "Manchester", "state": "NH", "zipcode": " 03101", "lat": "42.952114", "lng": " -71.444206", "street": "1623 Elliott Street"}{"name": "Donald J Cates", "phone": "603-674-0413", "city": "Manchester", "state": "NH", "zipcode": " 03101", "lat": "42.914928", "lng": " -71.394279", "street": "1576 Elliott Street"}{"name": "Melissa T Miele", "phone": "603-785-5878", "city": "Manchester", "state": "NH", "zipcode": " 03101", "lat": "43.023972", "lng": " -71.482674", "street": "2655 Elliott Street"}{"name": "Albert L Jackson", "phone": "603-203-8534", "city": "Manchester", "state": "NH", "zipcode": " 03101", "lat": "43.074814", "lng": " -71.511528", "street": "4969 Elliott Street"}{"name": "Gerald S Dodson", "phone": "706-402-0798", "city": "Lagrange", "state": "GA", "zipcode": " 30240", "lat": "32.924507", "lng": " -85.137451", "street": "408 Radio Park Drive"}{"name": "Michael B Tusing", "phone": "774-578-9653", "city": "Worcester", "state": "MA", "zipcode": " 01608", "lat": "42.354595", "lng": " -71.738945", "street": "1939 Pearlman Avenue"}{"name": "Gregory L Rodman", "phone": "214-685-9048", "city": "Lewisville", "state": "TX", "zipcode": " 75067", "lat": "33.106491", "lng": " -97.033279", "street": "1983 Whispering Pines Circle"}{"name": "Ronald R Perez", "phone": "708-977-3265", "city": "Schaumburg", "state": "IL", "zipcode": " 60173", "lat": "42.043667", "lng": " -88.012375", "street": "3343 Millbrook Road"}{"name": "Floyd J Henderson", "phone": "254-624-4781", "city": "Temple", "state": "TX", "zipcode": " 76501", "lat": "30.993391", "lng": " -97.174110", "street": "4100 Hill Haven Drive"}{"name": "Albert N Wilson", "phone": "650-948--2606", "city": "Washington", "state": "DC", "zipcode": " 20005", "lat": "38.816673", "lng": " -76.986046", "street": "3533 Hickory Lane"}{"name": "Verna J Hardin", "phone": "703-856-3771", "city": "Herndon", "state": "VA", "zipcode": " 22090", "lat": "38.860882", "lng": " -77.413010", "street": "4747 Conference Center Way"}{"name": "Ella W Taylor", "phone": "601-966-3225", "city": "Jackson", "state": "MS", "zipcode": " 39201", "lat": "32.332554", "lng": " -90.248619", "street": "4481 Brownton Road"}{"name": "Frank C Hopper", "phone": "203-593-1904", "city": "Plainfield", "state": "CT", "zipcode": " 06374", "lat": "41.787800", "lng": " -71.838257", "street": "4986 Meadow View Drive"}{"name": "Carole N Broadnax", "phone": "878-295-8488", "city": "Penn Hills", "state": "PA", "zipcode": " 15235", "lat": "40.477749", "lng": " -79.887817", "street": "4369 Lucky Duck Drive"}{"name": "Jerry S Williams", "phone": "270-572-8527", "city": "Campbellsville", "state": "KY", "zipcode": " 42718", "lat": "37.289413", "lng": " -85.424255", "street": "3398 Harper Street"}{"name": "Naomi D Washington", "phone": "508-826-7874", "city": "Charlemont", "state": "MA", "zipcode": " 01339", "lat": "42.586765", "lng": " -72.933220", "street": "806 Leverton Cove Road"}{"name": "Richard M Dwyer", "phone": "916-761-3065", "city": "Sacramento", "state": "CA", "zipcode": " 95814", "lat": "38.596523", "lng": " -121.572098", "street": "3936 Pearl Street"}{"name": "Ernest L Eaton", "phone": "301-376-0837", "city": "Laurel", "state": "MD", "zipcode": " 20707", "lat": "39.184074", "lng": " -76.871117", "street": "2948 Bobcat Drive"}{"name": "Jewel R Rios", "phone": "724-799-7299", "city": "Portland", "state": "PA", "zipcode": " 97205", "lat": "45.474541", "lng": " -122.637314", "street": "1653 Garrett Street"}{"name": "Jannie J Adams", "phone": "610-907-4409", "city": "Conshohocken", "state": "PA", "zipcode": " 19428", "lat": "39.980309", "lng": " -75.283836", "street": "939 Renwick Drive"}{"name": "Charles A Kemble", "phone": "936-200-0786", "city": "Livingston", "state": "TX", "zipcode": " 77351", "lat": "30.781111", "lng": " -94.789101", "street": "2663 Mulberry Street"}{"name": "Andrea E Crayton", "phone": "913-636-1027", "city": "Kansas City", "state": "KS", "zipcode": " 64106", "lat": "39.156181", "lng": " -94.523651", "street": "857 Better Street"}{"name": "Beverly P Otto", "phone": "703-283-5848", "city": "Richmond", "state": "VA", "zipcode": " 23222", "lat": "37.648357", "lng": " -77.419586", "street": "1348 Eden Drive"}{"name": "David R Vinton", "phone": "316-207-9279", "city": "Wichita", "state": "KS", "zipcode": " 67202", "lat": "37.661594", "lng": " -97.412964", "street": "1240 Ridge Road"}{"name": "Linda B Burman", "phone": "302-203-6280", "city": "Newark", "state": "DE", "zipcode": " 19711", "lat": "39.701012", "lng": " -75.744202", "street": "2709 Argonne Street"}{"name": "Janice J McDaniel", "phone": "714-803-1006", "city": "City Of Commerce", "state": "CA", "zipcode": " 90040", "lat": "34.071259", "lng": " -118.087540", "street": "153 Glendale Avenue"}{"name": "Anita T Goodspeed", "phone": "909-276-1589", "city": "Laguna Niguel", "state": "CA", "zipcode": " 92677", "lat": "33.630596", "lng": " -117.650719", "street": "1030 Oakwood Circle"}{"name": "Christopher M Brick", "phone": "619-979-6387", "city": "San Diego", "state": "CA", "zipcode": " 92111", "lat": "32.892841", "lng": " -117.261940", "street": "3933 Vernon Street"}{"name": "George R Baldree", "phone": "315-249-4434", "city": "Syracuse", "state": "NY", "zipcode": " 13202", "lat": "42.952660", "lng": " -76.111427", "street": "3820 Gandy Street"}{"name": "Vicky T Miller", "phone": "717-525-1761", "city": "Harrisburg", "state": "PA", "zipcode": " 17101", "lat": "40.247803", "lng": " -76.789589", "street": "3262 Hidden Valley Road"}{"name": "Janet J Egan", "phone": "408-966-9675", "city": "San Jose", "state": "CA", "zipcode": " 95134", "lat": "37.441154", "lng": " -121.873497", "street": "526 Park Street"}{"name": "Bennie R Coleman", "phone": "320-201-7119", "city": "Excelsior", "state": "MN", "zipcode": " 55331", "lat": "44.839703", "lng": " -93.717102", "street": "3042 Oral Lake Road"}{"name": "Bradley I Hopper", "phone": "714-864-7665", "city": "Placer Hills", "state": "CA", "zipcode": " 95603", "lat": "40.553780", "lng": " -122.441490", "street": "152 Byers Lane"}{"name": "Marshall A Davis", "phone": "412-335-7060", "city": "Pittsburgh", "state": "PA", "zipcode": " 15222", "lat": "40.526512", "lng": " -80.037682", "street": "2286 Chandler Hollow Road"}{"name": "Marshall A Davis", "phone": "412-335-7060", "city": "Pittsburgh", "state": "PA", "zipcode": " 15222", "lat": "40.526512", "lng": " -80.037682", "street": "2286 Chandler Hollow Road"}{"name": "David E Rohr", "phone": "248-497-7190", "city": "Southfield", "state": "MI", "zipcode": " 48075", "lat": "42.369930", "lng": " -83.150925", "street": "4000 Eagle Drive"}{"name": "Katherine M Smith", "phone": "423-747-1270", "city": "Johnson City", "state": "TN", "zipcode": " 37601", "lat": "36.314728", "lng": " -82.407455", "street": "3910 Nixon Avenue"}{"name": "Barbara R Scott", "phone": "917-417-9683", "city": "New York", "state": "NY", "zipcode": " 10004", "lat": "40.762787", "lng": " -74.005356", "street": "3068 Godfrey Road"}{"name": "William M Littleton", "phone": "352-207-9576", "city": "Ocala", "state": "FL", "zipcode": " 34471", "lat": "29.237734", "lng": " -82.182983", "street": "1578 Rhapsody Street"}{"name": "Odis H Grey", "phone": "402-525-5283", "city": "Lincoln", "state": "NE", "zipcode": " 68504", "lat": "40.838863", "lng": " -96.651260", "street": "1197 Oak Way"}{"name": "Betty A Adkins", "phone": "213-610-4896", "city": "Los Angeles", "state": "CA", "zipcode": " 90017", "lat": "34.097153", "lng": " -118.217560", "street": "1444 Gordon Street"}{"name": "Shirley O Pope", "phone": "214-264-4061", "city": "Dallas", "state": "TX", "zipcode": " 75208", "lat": "32.846958", "lng": " -96.914238", "street": "2084 Carolyns Circle"}{"name": "Priscilla T Spinella", "phone": "203-802-4544", "city": "Waterbury", "state": "CT", "zipcode": " 06702", "lat": "41.634300", "lng": " -72.940132", "street": "921 Whitman Court"}{"name": "Benjamin E Roseberry", "phone": "419-201-9035", "city": "Canton", "state": "OH", "zipcode": " 44702", "lat": "40.810429", "lng": " -81.300957", "street": "56 Rainbow Drive"}{"name": "William T Underwood", "phone": "612-978-5152", "city": "Minneapolis", "state": "MN", "zipcode": " 55415", "lat": "45.004478", "lng": " -93.331505", "street": "4804 Bryan Avenue"}{"name": "Robert M Fenske", "phone": "773-574-5630", "city": "Chicago", "state": "IL", "zipcode": " 60629", "lat": "41.779835", "lng": " -87.618698", "street": "2994 Point Street"}{"name": "Christina R Acevedo", "phone": "703-629-7249", "city": "Johnson City", "state": "VA", "zipcode": " 37601", "lat": "36.324375", "lng": " -82.358589", "street": "4220 Douglas Dairy Road"}{"name": "Michelle C Sanchez", "phone": "215-414-9118", "city": "Philadelphia", "state": "PA", "zipcode": " 19108", "lat": "39.973213", "lng": " -75.088966", "street": "2538 Bastin Drive"}{"name": "Willie J Hill", "phone": "757-404-9752", "city": "Fredericksburg", "state": "VA", "zipcode": " 22401", "lat": "38.378323", "lng": " -77.570976", "street": "3418 Brooklyn Street"}{"name": "Fred K Ramsey", "phone": "702-580-0528", "city": "Las Vegas", "state": "NV", "zipcode": " 89102", "lat": "36.052841", "lng": " -115.226471", "street": "4630 Hiney Road"}{"name": "Sean B Ryan", "phone": "216-773-7753", "city": "Beachwood", "state": "OH", "zipcode": " 44122", "lat": "41.431244", "lng": " -81.424011", "street": "4541 Peaceful Lane"}{"name": "Bessie C Tolbert", "phone": "415-602-3923", "city": "San Francisco", "state": "CA", "zipcode": " 94104", "lat": "37.707703", "lng": " -122.476830", "street": "138 Friendship Lane"}{"name": "John G Wilson", "phone": "469-353-4982", "city": "Frisco", "state": "TX", "zipcode": " 75034", "lat": "33.182823", "lng": " -96.838188", "street": "4092 Jones Street"}{"name": "Rose G Gamblin", "phone": "858-213-5943", "city": "San Diego", "state": "CA", "zipcode": " 92110", "lat": "32.798615", "lng": " -117.098778", "street": "2179 Hamill Avenue"}{"name": "Ollie J Smith", "phone": "909-809-6790", "city": "San Bruno", "state": "CA", "zipcode": " 94066", "lat": "37.671230", "lng": " -122.523705", "street": "4217 Duck Creek Road"}{"name": "Ray M Daniel", "phone": "573-647-1305", "city": "Rolla", "state": "MO", "zipcode": " 65401", "lat": "37.862026", "lng": " -91.693901", "street": "4957 Oak Ridge Drive"}{"name": "Jewel R Rios", "phone": "724-799-7299", "city": "Portland", "state": "PA", "zipcode": " 97205", "lat": "45.474541", "lng": " -122.637314", "street": "1653 Garrett Street"}{"name": "Santiago M Cronin", "phone": "704-744-2277", "city": "Matthews", "state": "NC", "zipcode": " 28105", "lat": "35.192608", "lng": " -80.787125", "street": "1067 Snyder Avenue"}{"name": "James J Davidson", "phone": "719-200-1946", "city": "Centennial", "state": "CO", "zipcode": " 80111", "lat": "39.640038", "lng": " -104.823280", "street": "2425 Clay Lick Road"}{"name": "Kathleen R Coghlan", "phone": "818-289-9969", "city": "Los Angeles", "state": "CA", "zipcode": " 90017", "lat": "34.112595", "lng": " -118.281509", "street": "3911 Maple Street"}{"name": "Bonnie D Acosta", "phone": "267-237-7366", "city": "Philadelphia", "state": "PA", "zipcode": " 19111", "lat": "40.016983", "lng": " -75.169807", "street": "2318 Wakefield Street"}{"name": "Edward L Bernardo", "phone": "517-930-5091", "city": "Lansing", "state": "MI", "zipcode": " 48933", "lat": "42.647034", "lng": " -84.472969", "street": "4158 Jarvisville Road"}{"name": "Eugene K Sumter", "phone": "773-727-8708", "city": "Oak Brook", "state": "IL", "zipcode": " 60523", "lat": "41.805096", "lng": " -88.004738", "street": "1615 Hickman Street"}{"name": "David J Vasquez", "phone": "940-600-5841", "city": "Denton", "state": "TX", "zipcode": " 76201", "lat": "33.155212", "lng": " -97.100220", "street": "2653 Boggess Street"}{"name": "Renee M Stlouis", "phone": "919-601-1703", "city": "Lisbon", "state": "NC", "zipcode": " 28433", "lat": "34.795937", "lng": " -78.335388", "street": "4015 Armory Road"}{"name": "Steven B Mason", "phone": "786-251-0602", "city": "North Miami", "state": "FL", "zipcode": " 33161", "lat": "25.827934", "lng": " -80.207397", "street": "4149 Tyler Avenue"}{"name": "Dana M Young", "phone": "636-484-2441", "city": "Manchester", "state": "MO", "zipcode": " 63011", "lat": "39.611504", "lng": " -90.291084", "street": "2438 Irving Place"}{"name": "Douglas H Kirkpatrick", "phone": "912-662-9112", "city": "Savannah", "state": "GA", "zipcode": " 31401", "lat": "32.053341", "lng": " -80.966530", "street": "3155 Lilac Lane"}{"name": "Ramona T Taylor", "phone": "305-201-4926", "city": "Miami", "state": "FL", "zipcode": " 33131", "lat": "25.805517", "lng": " -80.177498", "street": "4903 Golden Street"}{"name": "Bernice S Iverson", "phone": "248-521-3008", "city": "Southfield", "state": "MI", "zipcode": " 48235", "lat": "42.578350", "lng": " -83.223824", "street": "2642 Eagle Drive"}{"name": "Frank M Strong", "phone": "406-291-6605", "city": "Libby", "state": "MT", "zipcode": " 59923", "lat": "48.270596", "lng": " -115.374580", "street": "4031 Richison Drive"}{"name": "Alan P Stumbaugh", "phone": "412-290-3982", "city": "Coopersburg", "state": "PA", "zipcode": " 18036", "lat": "40.490070", "lng": " -75.398308", "street": "3841 Tree Top Lane"}{"name": "Betty S Mitchell", "phone": "410-890-0601", "city": "Towson", "state": "MD", "zipcode": " 21204", "lat": "39.432205", "lng": " -76.666893", "street": "994 Marie Street"}{"name": "Darrell A Pearson", "phone": "217-232-0883", "city": "Mattoon", "state": "IL", "zipcode": " 61938", "lat": "39.529270", "lng": " -88.269218", "street": "4057 Bolman Court"}{"name": "Jean L Summers", "phone": "989-325-2610", "city": "Caro", "state": "MI", "zipcode": " 48723", "lat": "43.537010", "lng": " -83.341454", "street": "1634 Mount Street"}